{ "_id" : 1, "artificialSnow" : true, "favorite" : true, "favoriteSkiResort" : true, "favoriteSnbResort" : true, "lat" : 50.7448469, "lng" : 15.8205392, "mountains" : 1, "name" : "Horní Malá Úpa", "nightSkiing" : true, "slopes" : 9, "snow" : 70, "snowType" : "tvrdý", "state" : "open" }
{ "_id" : 2, "artificialSnow" : true, "favorite" : true, "lat" : 50.3046434, "lng" : 16.3506512, "mountains" : 2, "name" : "Deštné v Orlických horách", "nightSkiing" : true, "slopes" : 12.5, "snow" : 20, "snowType" : "tvrdý", "state" : "closed" }
{ "_id" : 3, "artificialSnow" : true, "favorite" : true, "favoriteSkiRace" : true, "favoriteSkiResort" : true, "favoriteSnbPark" : true, "favoriteSnbResort" : true, "lat" : 50.7261499, "lng" : 15.6094494, "mountains" : 1, "name" : "Špindlerův Mlýn", "nightSkiing" : true, "slopes" : 32, "snow" : 80, "snowType" : "tvrdý", "state" : "open" }
{ "_id" : 4, "artificialSnow" : true, "favorite" : true, "favoriteSkiRace" : true, "lat" : 50.19100659999999, "lng" : 16.4327462, "mountains" : 2, "name" : "Říčky", "nightSkiing" : true, "slopes" : 19, "snow" : 40, "snowType" : "tvrdý", "state" : "open" }
{ "_id" : 5, "artificialSnow" : true, "favoriteSkiResort" : true, "lat" : 50.7508333, "lng" : 15.2816667, "mountains" : 6, "name" : "Tanvaldský Špičák", "nightSkiing" : true, "slopes" : 6.6, "snow" : 30, "snowType" : "tvrdý", "state" : "open" }
{ "_id" : 6, "artificialSnow" : true, "lat" : 50.7819156, "lng" : 15.231474, "mountains" : 6, "name" : "Josefův Důl", "nightSkiing" : true, "slopes" : 2.3, "snow" : 15, "snowType" : "tvrdý", "state" : "closed" }
{ "_id" : 7, "artificialSnow" : true, "favorite" : true, "lat" : 50.7910884, "lng" : 15.1424711, "mountains" : 6, "name" : "Bedřichov", "nightSkiing" : true, "slopes" : 5, "snow" : 20, "snowType" : "tvrdý", "state" : "closed" }
{ "_id" : 8, "artificialSnow" : true, "lat" : 50.7342912, "lng" : 15.3610729, "mountains" : 6, "name" : "Kořenov - Rejdice", "nightSkiing" : true, "slopes" : 3.1, "snow" : 35, "snowType" : "tvrdý", "state" : "open" }
{ "_id" : 9, "artificialSnow" : true, "favoriteSkiRace" : true, "lat" : 50.633675, "lng" : 15.77877, "mountains" : 1, "name" : "Černá hora - Jánské Lázně", "nightSkiing" : true, "slopes" : 16, "snow" : 70, "snowType" : "tvrdý", "state" : "open" }
{ "_id" : 10, "artificialSnow" : true, "favoriteSkiResort" : true, "favoriteSnbPark" : true, "lat" : 50.63495890000001, "lng" : 15.7106011, "mountains" : 1, "name" : "Černý důl", "nightSkiing" : true, "slopes" : 10, "snow" : 50, "snowType" : "tvrdý", "state" : "open" }
{ "_id" : 11, "artificialSnow" : true, "favorite" : true, "favoriteSkiRace" : true, "favoriteSnbPark" : true, "lat" : 50.6064239, "lng" : 15.8334877, "mountains" : 1, "name" : "Mladé buky", "nightSkiing" : false, "slopes" : 6.2, "snow" : 40, "snowType" : "tvrdý", "state" : "open" }
{ "_id" : 12, "artificialSnow" : true, "lat" : 50.6902497, "lng" : 15.7679005, "mountains" : 1, "name" : "Velká Úpa", "nightSkiing" : false, "slopes" : 8.699999999999999, "snow" : 55, "snowType" : "technický", "state" : "open" }
{ "_id" : 13, "artificialSnow" : true, "lat" : 50.6663334, "lng" : 15.5481721, "mountains" : 1, "name" : "Benecko", "nightSkiing" : false, "slopes" : 4.3, "snow" : 35, "snowType" : "technický", "state" : "closed" }
{ "_id" : 14, "artificialSnow" : true, "lat" : 50.7034692, "lng" : 15.4295983, "mountains" : 1, "name" : "Jablonec nad Jizerou", "nightSkiing" : false, "slopes" : 2, "snow" : 15, "snowType" : "technický", "state" : "closed" }
{ "_id" : 15, "artificialSnow" : true, "lat" : 50.6938809, "lng" : 15.7331672, "mountains" : 1, "name" : "Pec pod Sněžkou", "nightSkiing" : false, "slopes" : 4, "snow" : 60, "snowType" : "technický", "state" : "open" }
{ "_id" : 16, "artificialSnow" : true, "favoriteSkiRace" : true, "image" : "zacler.jpg", "lat" : 50.6454353, "lng" : 15.9058942, "map" : "zacler-mapa.jpg", "mountains" : 1, "name" : "Žacléř - Prkenný důl", "nightSkiing" : false, "slopes" : 5, "snow" : 10, "snowType" : "technický", "state" : "closed", "webcam" : "http://www.holidayinfo.cz/zima/video.php?mp4=S7QytqouBhJKuQUmStaZVoYGRgaWBtZgoeTEXJCQkYG5BVDAxEqpJDM3VQnINASyjQwMTQyMDM0NTY0tjU2VrGsB", "www" : "http://www.skizacler.com" }
{ "_id" : 17, "artificialSnow" : true, "favoriteSkiResort" : true, "favoriteSnbPark" : true, "lat" : 50.0113813, "lng" : 16.6824094, "mountains" : 2, "name" : "Čenkovice", "nightSkiing" : false, "slopes" : 5.2, "snow" : 20, "snowType" : "technický", "state" : "open" }
{ "_id" : 18, "artificialSnow" : true, "favorite" : true, "lat" : 50.23847929999999, "lng" : 16.4085832, "mountains" : 2, "name" : "Zdobnice", "nightSkiing" : false, "slopes" : 1.3, "snow" : 5, "snowType" : "technický", "state" : "closed" }
{ "_id" : 19, "artificialSnow" : true, "lat" : 50.04028890000001, "lng" : 16.7426871, "mountains" : 2, "name" : "Červená Voda", "nightSkiing" : false, "slopes" : 3.3, "snow" : 30, "snowType" : "technický", "state" : "open" }
{ "_id" : 20, "artificialSnow" : true, "favorite" : true, "lat" : 49.9246035, "lng" : 16.3969696, "mountains" : 2, "name" : "Přívrat", "nightSkiing" : false, "slopes" : 1.4, "snow" : 0, "snowType" : "technický", "state" : "closed" }
{ "_id" : 21, "artificialSnow" : true, "lat" : 50.0836111, "lng" : 17.2313889, "mountains" : 4, "name" : "Praděd", "nightSkiing" : false, "slopes" : 4.8, "snow" : 80, "snowType" : "technický", "state" : "open" }
{ "_id" : 22, "artificialSnow" : true, "lat" : 50.1246338, "lng" : 17.1540724, "mountains" : 4, "name" : "Červenohorské sedlo", "nightSkiing" : false, "slopes" : 5.9, "snow" : 10, "snowType" : "technický", "state" : "closed" }
{ "_id" : 23, "artificialSnow" : false, "lat" : 49.5277778, "lng" : 25.5772222, "mountains" : 4, "name" : "Petříkov", "nightSkiing" : false, "slopes" : 4.3, "snow" : 25, "snowType" : "technický", "state" : "closed" }
{ "_id" : 24, "artificialSnow" : false, "lat" : 50.1913225, "lng" : 17.0691041, "mountains" : 4, "name" : "Ramzová", "nightSkiing" : false, "slopes" : 8.699999999999999, "snow" : 20, "snowType" : "technický", "state" : "open" }
{ "_id" : 25, "artificialSnow" : false, "lat" : 50.1010437, "lng" : 17.116552, "mountains" : 4, "name" : "Kouty nad Desnou", "nightSkiing" : false, "slopes" : 11.5, "snow" : 40, "snowType" : "firn", "state" : "open" }
{ "_id" : 26, "artificialSnow" : false, "favoriteSnbResort" : true, "lat" : 50.1223171, "lng" : 16.7995866, "mountains" : 9, "name" : "Dolní Morava", "nightSkiing" : false, "slopes" : 8.1, "snow" : 40, "snowType" : "firn", "state" : "open" }
{ "_id" : 27, "artificialSnow" : false, "lat" : 50.2175172, "lng" : 15.6359215, "mountains" : 9, "name" : "Kunčice", "nightSkiing" : false, "slopes" : 5.3, "snow" : 30, "snowType" : "firn", "state" : "open" }
{ "_id" : 28, "artificialSnow" : false, "lat" : 49.4903, "lng" : 18.2658, "mountains" : 5, "name" : "Pustevny", "nightSkiing" : false, "slopes" : 8.199999999999999, "snow" : 5, "snowType" : "firn", "state" : "closed" }
{ "_id" : 29, "artificialSnow" : false, "lat" : 49.35127629999999, "lng" : 18.2400737, "mountains" : 5, "name" : "Karolinka", "nightSkiing" : false, "slopes" : 2.7, "snow" : 20, "snowType" : "firn", "state" : "closed" }
{ "_id" : 30, "artificialSnow" : false, "lat" : 41.8075069, "lng" : 20.3956731, "mountains" : 5, "name" : "Troják", "nightSkiing" : false, "slopes" : 1.4, "snow" : 15, "snowType" : "firn", "state" : "closed" }
{ "_id" : 31, "artificialSnow" : false, "lat" : 9.2291714, "lng" : 37.0319825, "mountains" : 5, "name" : "Bílá", "nightSkiing" : false, "slopes" : 5.3, "snow" : 20, "snowType" : "firn", "state" : "open" }
{ "_id" : 32, "artificialSnow" : false, "mountains" : 5, "name" : "Kyčerka", "nightSkiing" : true, "slopes" : 2.4, "snow" : 30, "snowType" : "firn", "state" : "open" }
{ "_id" : 33, "artificialSnow" : false, "favoriteSkiRace" : true, "lat" : 52.844147, "lng" : 19.1784128, "mountains" : 3, "name" : "Lipno", "nightSkiing" : true, "slopes" : 8.300000000000001, "snow" : 45, "snowType" : "firn", "state" : "open" }
{ "_id" : 34, "artificialSnow" : false, "favoriteSnbResort" : true, "lat" : 49.0714591, "lng" : 13.6270245, "mountains" : 3, "name" : "Zadov", "nightSkiing" : true, "slopes" : 4.5, "snow" : 60, "snowType" : "měkký", "state" : "open" }
{ "_id" : 35, "artificialSnow" : false, "lat" : 49.1429001, "lng" : 13.5561642, "mountains" : 3, "name" : "Kašperské hory", "nightSkiing" : true, "slopes" : 2, "snow" : 30, "snowType" : "měkký", "state" : "open" }
{ "_id" : 36, "artificialSnow" : false, "lat" : 48.6609442, "lng" : 14.1656315, "mountains" : 3, "name" : "Frymburk", "nightSkiing" : true, "slopes" : 1.4, "snow" : 20, "snowType" : "měkký", "state" : "closed" }
{ "_id" : 37, "artificialSnow" : true, "favorite" : true, "lat" : 50.0106248, "lng" : 12.6278088, "mountains" : 3, "name" : "Špičák", "nightSkiing" : true, "slopes" : 7.7, "snow" : 35, "snowType" : "měkký", "state" : "open" }
{ "_id" : 38, "artificialSnow" : false, "lat" : 49.0387029, "lng" : 13.6456594, "mountains" : 3, "name" : "Nové Hutě", "nightSkiing" : true, "slopes" : 2.5, "snow" : 20, "snowType" : "měkký", "state" : "closed" }
{ "_id" : 39, "artificialSnow" : false, "lat" : 50.3743944, "lng" : 12.5051872, "mountains" : 8, "name" : "Bublava", "nightSkiing" : true, "slopes" : 4.9, "snow" : 40, "snowType" : "měkký", "state" : "open" }
{ "_id" : 40, "artificialSnow" : false, "favoriteSnbResort" : true, "lat" : 50.4097443, "lng" : 12.9244707, "mountains" : 8, "name" : "Boží dar", "nightSkiing" : true, "slopes" : 5.2, "snow" : 55, "snowType" : "měkký", "state" : "open" }
{ "_id" : 41, "artificialSnow" : true, "lat" : 50.39582069999999, "lng" : 12.9678119, "mountains" : 8, "name" : "Klínovec", "nightSkiing" : true, "slopes" : 12.4, "snow" : 45, "snowType" : "měkký", "state" : "open" }
{ "_id" : 42, "artificialSnow" : false, "lat" : 50.6858808, "lng" : 13.7070428, "mountains" : 8, "name" : "Bouřňák", "nightSkiing" : true, "slopes" : 6.8, "snow" : 20, "state" : "closed" }
{ "_id" : 43, "artificialSnow" : false, "lat" : 50.6382487, "lng" : 13.5481322, "mountains" : 8, "name" : "Klíny", "nightSkiing" : true, "slopes" : 3.2, "snow" : 10, "snowType" : "mokrý", "state" : "closed" }
{ "_id" : 44, "artificialSnow" : false, "lat" : 49.9645986, "lng" : 12.7011977, "mountains" : 8, "name" : "Mariánské Lázně", "nightSkiing" : true, "slopes" : 1.6, "snow" : 35, "snowType" : "mokrý", "state" : "open" }
{ "_id" : 45, "artificialSnow" : true, "lat" : 49.5614432, "lng" : 16.0741877, "mountains" : 7, "name" : "Nové Město na Morave", "nightSkiing" : true, "slopes" : 0.5, "snow" : 25, "snowType" : "mokrý", "state" : "closed" }
{ "_id" : 46, "artificialSnow" : true, "lat" : 51.2134346, "lng" : 17.3898504, "mountains" : 7, "name" : "Olešnice", "nightSkiing" : true, "slopes" : 1.5, "snow" : 20, "snowType" : "mokrý", "state" : "closed" }
{ "_id" : 47, "artificialSnow" : true, "favoriteSnbResort" : true, "lat" : 51.2134346, "lng" : 17.3898504, "mountains" : 2, "name" : "Olešnice", "nightSkiing" : true, "slopes" : 2.4, "snow" : 35, "snowType" : "mokrý", "state" : "closed" }
{ "_id" : 48, "artificialSnow" : true, "mountains" : 1, "name" : "Kněžický vrch", "nightSkiing" : true, "slopes" : 1.9, "snow" : 40, "snowType" : "mokrý", "state" : "open" }
{ "_id" : 49, "artificialSnow" : true, "lat" : 50.625961, "lng" : 15.8164883, "mountains" : 1, "name" : "Svoboda nad Úpou", "nightSkiing" : true, "slopes" : 0.8, "snow" : 20, "snowType" : "mokrý", "state" : "open" }
{ "_id" : 50, "artificialSnow" : true, "favoriteSnbResort" : true, "lat" : 50.3383013, "lng" : 16.3154881, "mountains" : 2, "name" : "Sedloňov", "nightSkiing" : true, "slopes" : 1, "snow" : 25, "snowType" : "mokrý", "state" : "open" }
{ "_id" : 60, "ccresort" : true, "favoriteCCSkiResort" : true, "level" : "lehká", "name" : "Krkonošká magistrála", "slopes" : 31, "state" : "open" }
{ "_id" : 61, "ccresort" : true, "favoriteCCSkiResort" : true, "level" : "lehká", "name" : "Benecký okruh", "slopes" : 16, "state" : "closed" }
{ "_id" : 62, "ccresort" : true, "favoriteCCSkiKidResort" : true, "favoriteCCSkiResort" : true, "level" : "lehká", "name" : "Dolnohamerský okruh", "slopes" : 5, "state" : "open" }
{ "_id" : 63, "name" : "Hlavním hřebenem Hrubého Jeseníku", "ccresort" : true, "level" : "těžká", "favoriteCCSkiResort" : true, "slopes" : 21, "state" : "open" }
{ "_id" : 64, "name" : "Hora Svaté Kateřiny", "level" : "střední", "slopes" : 7, "ccresort" : true, "favoriteCCSkiKidResort" : true, "state" : "open" }
{ "_id" : 65, "ccresort" : true, "favoriteCCSkiKidResort" : true, "favoriteCCSkiResort" : true, "level" : "lehká", "name" : "Černá hora z Pece", "slopes" : 4, "state" : "closed" }
